[
  {
    "name": "잠실야구장",
    "team_abbr": "OB",
    "city": "서울",
    "address": "서울특별시 송파구 올림픽로 25",
    "lat": 37.5122,
    "lng": 127.0717,
    "stamp_radius_m": 500,
    "parking_info": null,
    "seating_info": null,
    "route_info": null,
    "convenience_info": null
  },
  {
    "name": "고척스카이돔",
    "team_abbr": "KW",
    "city": "서울",
    "address": "서울특별시 구로구 경인로 430",
    "lat": 37.4981,
    "lng": 126.8675,
    "stamp_radius_m": 500,
    "parking_info": null,
    "seating_info": null,
    "route_info": null,
    "convenience_info": null
  },
  {
    "name": "인천SSG랜더스필드",
    "team_abbr": "SK",
    "city": "인천",
    "address": "인천광역시 미추홀구 매소홀로 618",
    "lat": 37.4371,
    "lng": 126.6934,
    "stamp_radius_m": 500,
    "parking_info": null,
    "seating_info": null,
    "route_info": null,
    "convenience_info": null
  },
  {
    "name": "사직야구장",
    "team_abbr": "LT",
    "city": "부산",
    "address": "부산광역시 동래구 사직로 45",
    "lat": 35.1942,
    "lng": 129.0613,
    "stamp_radius_m": 500,
    "parking_info": null,
    "seating_info": null,
    "route_info": null,
    "convenience_info": null
  },
  {
    "name": "대구삼성라이온즈파크",
    "team_abbr": "SS",
    "city": "대구",
    "address": "대구광역시 수성구 야구전설로 1",
    "lat": 35.8411,
    "lng": 128.6814,
    "stamp_radius_m": 500,
    "parking_info": null,
    "seating_info": null,
    "route_info": null,
    "convenience_info": null
  },
  {
    "name": "한화생명이글스파크",
    "team_abbr": "HH",
    "city": "대전",
    "address": "대전광역시 중구 대종로 373",
    "lat": 36.3171,
    "lng": 127.4295,
    "stamp_radius_m": 500,
    "parking_info": null,
    "seating_info": null,
    "route_info": null,
    "convenience_info": null
  },
  {
    "name": "광주기아챔피언스필드",
    "team_abbr": "HT",
    "city": "광주",
    "address": "광주광역시 북구 서림로 10",
    "lat": 35.1681,
    "lng": 126.9022,
    "stamp_radius_m": 500,
    "parking_info": null,
    "seating_info": null,
    "route_info": null,
    "convenience_info": null
  },
  {
    "name": "창원NC파크",
    "team_abbr": "NC",
    "city": "창원",
    "address": "경상남도 창원시 의창구 창원대로 12",
    "lat": 35.2225,
    "lng": 128.5823,
    "stamp_radius_m": 500,
    "parking_info": null,
    "seating_info": null,
    "route_info": null,
    "convenience_info": null
  },
  {
    "name": "수원KT위즈파크",
    "team_abbr": "KT",
    "city": "수원",
    "address": "경기도 수원시 팔달구 수원천로 93",
    "lat": 37.2997,
    "lng": 127.0098,
    "stamp_radius_m": 500,
    "parking_info": null,
    "seating_info": null,
    "route_info": null,
    "convenience_info": null
  }
]
