[
  {
    "name": "잠실야구장",
    "team_abbr": "OB",
    "city": "서울",
    "address": "서울특별시 송파구 올림픽로 25",
    "lat": 37.5122,
    "lng": 127.0717,
    "stamp_radius_m": 500,
    "parking_info": "올림픽공원 주차장(유료) 이용 권장. 경기 당일 잠실역·구장 인근은 혼잡. 대중교통 이용 강력 추천.",
    "seating_info": "1~3루 내야석 + 외야 응원석. 원정팀 응원석은 주로 3루 외야 지정. 입장 시 티켓 구역 확인 필수.",
    "route_info": "2호선 잠실역 2번 출구 → 도보 10분. 경기 후 잠실역 인파 집중 → 종합운동장역(2번 출구)으로 우회 추천.",
    "convenience_info": "내야 1층 CU 편의점. 외야 매점 다수. 구장 외부 GS25 (잠실역 방면 도보 3분)."
  },
  {
    "name": "고척스카이돔",
    "team_abbr": "KW",
    "city": "서울",
    "address": "서울특별시 구로구 경인로 430",
    "lat": 37.4981,
    "lng": 126.8675,
    "stamp_radius_m": 500,
    "parking_info": "구장 자체 주차장 있음 (경기일 만차 다반사). 가산디지털단지역 인근 공영주차장 이용 후 버스 이동 추천.",
    "seating_info": "국내 유일 돔 구장. 1~3층 내야+외야. 원정 응원석은 3루 외야 지정석. 실내라 전 좌석 시야 양호. 우천 취소 없음.",
    "route_info": "1·7호선 온수역 2번 출구 → 마을버스 구로05 약 10분. 또는 가산디지털단지역에서 버스 이용.",
    "convenience_info": "구장 내 CU·이마트24 편의점. 1층 푸드코트 다양. 실내 돔이라 외부 이동 없이 이용 가능."
  },
  {
    "name": "인천SSG랜더스필드",
    "team_abbr": "SK",
    "city": "인천",
    "address": "인천광역시 미추홀구 매소홀로 618",
    "lat": 37.4371,
    "lng": 126.6934,
    "stamp_radius_m": 500,
    "parking_info": "구장 인근 주차장 2,000면 이상. 경기일에도 비교적 여유. 대중교통보단 자차 접근이 편한 구장.",
    "seating_info": "2002년 개장 후 리모델링. 1루 SSG 응원, 3루 원정 응원 구역. 그라운드 뷰 좋은 내야 1층 추천.",
    "route_info": "인천 1호선 문학경기장역 1번 출구 → 도보 5분. 서울·수도권에서 KTX 불필요, 전철 1시간 내외.",
    "convenience_info": "구장 내 편의점·매점. 인근 이마트(문학IC 방면) 경기 전 들르기 좋음."
  },
  {
    "name": "사직야구장",
    "team_abbr": "LT",
    "city": "부산",
    "address": "부산광역시 동래구 사직로 45",
    "lat": 35.1942,
    "lng": 129.0613,
    "stamp_radius_m": 500,
    "parking_info": "구장 주차 공간 협소. 사직역 인근 유료 주차장 이용. 롯데 팬 많은 경기일엔 대중교통 필수.",
    "seating_info": "1971년 개장 노후 구장 특유의 분위기. 3루 원정 응원 구역. 내야 지붕 없음 — 우천 대비 우비 지참 권장.",
    "route_info": "3호선 사직역 4번 출구 → 도보 5분. 부산 어디서든 지하철 환승으로 접근 편리.",
    "convenience_info": "구장 내 매점·CU. 사직역 방면 편의점 다수. 경기 전 서면역 상권(3정거장)에서 식사 추천."
  },
  {
    "name": "대구삼성라이온즈파크",
    "team_abbr": "SS",
    "city": "대구",
    "address": "대구광역시 수성구 야구전설로 1",
    "lat": 35.8411,
    "lng": 128.6814,
    "stamp_radius_m": 500,
    "parking_info": "구장 내 주차 가능(유료). 인근 알파시티 공영주차장 이용 가능. 지하철 연계 불편 — 자차 또는 택시 추천.",
    "seating_info": "2016년 신축 현대식 구장. 전 좌석 등받이. 3루 원정 응원 구역. 그라운드 뷰 수준급.",
    "route_info": "대구 지하철 연계 없음. 동대구역에서 택시 15분. 경기 당일 셔틀버스(동대구역 출발) 운행 여부 사전 확인 요망.",
    "convenience_info": "구장 내 CU·편의점 다수. 삼성 라이온즈 공식 굿즈샵(1층). 외부 편의점은 도보 거리 없음 — 입장 전 구비 추천."
  },
  {
    "name": "한화생명이글스파크",
    "team_abbr": "HH",
    "city": "대전",
    "address": "대전광역시 중구 대종로 373",
    "lat": 36.3171,
    "lng": 127.4295,
    "stamp_radius_m": 500,
    "parking_info": "대전역 인근 구장. 주차 공간 제한적. 대전역 공영주차장 이용 후 도보·택시 이동 추천.",
    "seating_info": "1964년 개장 노후 구장. 3루 원정 응원 구역. 내야 지붕 일부 있어 비 피할 수 있음. 외야는 잔디 개방.",
    "route_info": "KTX 대전역 → 도보 15분 또는 택시 5분. 서울·부산에서 KTX 당일치기 원정 최적 구장.",
    "convenience_info": "구장 내 매점·CU. 대전역 인근 편의점 다수. 경기 전 성심당 본점(도보 10분) 방문은 대전 원정 필수 코스."
  },
  {
    "name": "광주기아챔피언스필드",
    "team_abbr": "HT",
    "city": "광주",
    "address": "광주광역시 북구 서림로 10",
    "lat": 35.1681,
    "lng": 126.9022,
    "stamp_radius_m": 500,
    "parking_info": "구장 인근 상무지구 공영주차장 이용. 경기일 만차 가능. 광주 지하철 + 도보 조합 추천.",
    "seating_info": "2014년 신축 현대식 구장. 전 좌석 쾌적. 3루 원정 응원 구역. 외야 잔디 개방.",
    "route_info": "광주 지하철 1호선 상무역 → 도보 15분. 시내버스 병행 이용. KTX 광주송정역에서 지하철 환승.",
    "convenience_info": "구장 내 CU·편의점. 상무지구 상권 도보 15분 — 경기 전후 식사·쇼핑 가능."
  },
  {
    "name": "창원NC파크",
    "team_abbr": "NC",
    "city": "창원",
    "address": "경상남도 창원시 의창구 창원대로 12",
    "lat": 35.2225,
    "lng": 128.5823,
    "stamp_radius_m": 500,
    "parking_info": "창원종합운동장 내 주차장 넉넉한 편. 경기일에도 비교적 여유 있음.",
    "seating_info": "2019년 신축 최신 구장. 전 좌석 등받이. 3루 원정 응원 구역. 외야 그린 뷰 좋음.",
    "route_info": "창원 시내버스 이용 (창원역·마산역에서 30분 내외). KTX 창원역에서 택시 20분.",
    "convenience_info": "구장 내 편의점·매점. NC 다이노스 공식 굿즈샵. 인근 마산어시장(차 10분) 경기 후 방문 추천."
  },
  {
    "name": "수원KT위즈파크",
    "team_abbr": "KT",
    "city": "수원",
    "address": "경기도 수원시 팔달구 수원천로 93",
    "lat": 37.2997,
    "lng": 127.0098,
    "stamp_radius_m": 500,
    "parking_info": "구장 인근 공영주차장·수원역 공영주차장 이용. 수원역 주차 후 도보 15분 이동 가능.",
    "seating_info": "리모델링 구장. 3루 원정 응원 구역. 내야 지붕 일부. 1호선 수원역에서 가까워 서울 당일치기 용이.",
    "route_info": "1호선 수원역 3번 출구 → 도보 15분 또는 마을버스. 서울 용산·서울역에서 30분 내외.",
    "convenience_info": "구장 내 CU·매점. 수원역 지하상가 경기 전 이용 가능. 수원 행궁동(차 10분) 경기 후 코스."
  }
]
